[
  {
    "name": "Copycave Printing",
    "phone": "+1 855-321-2283",
    "image": "https://r.bing.com/rp/x5cFUfAm445Z8lJcsV2pLCL1fn8.png",
    "latitude": 62.65999984741211,
    "longitude": -95.98999786376953
  },
  {
    "name": "Canvas Prints Canada",
    "phone": "+1 825-977-3451",
    "image": "https://th.bing.com/th/id/OLC.wQJbl5dTvO6TIw480x360?w=114&h=114&c=8&rs=1&qlt=90&cdv=1&pid=Local",
    "latitude": 62.65999984741211,
    "longitude": -95.98999786376953
  },
  {
    "name": "Georgetown Printing Ltd",
    "phone": "+1 519-569-1133",
    "image": "https://th.bing.com/th/id/OLC.txpyZk8YDVg9Zg480x360?w=114&h=114&c=8&rs=1&qlt=90&cdv=1&pid=Local",
    "latitude": 62.65999984741211,
    "longitude": -95.98999786376953
  },
  {
    "name": "Superior Print",
    "phone": "+1 705-946-4944",
    "image": "https://r.bing.com/rp/x5cFUfAm445Z8lJcsV2pLCL1fn8.png",
    "latitude": 62.65999984741211,
    "longitude": -95.98999786376953
  },
  {
    "name": "The Print Expert Inc",
    "phone": "+1 825-735-2535",
    "image": "https://th.bing.com/th?id=OLC.TMDSopimq%2fVqig480x360&w=114&h=114&c=8&rs=1&qlt=90&cdv=1&pid=Local",
    "latitude": 62.65999984741211,
    "longitude": -95.98999786376953
  },
  {
    "name": "Save on Canvas - Photo & Canvas Printing",
    "phone": "+1 825-977-7667",
    "image": "https://th.bing.com/th/id/OLC.7npJZXS5Txfw3Q480x360?w=114&h=114&c=8&rs=1&qlt=90&cdv=1&pid=Local",
    "latitude": 62.65999984741211,
    "longitude": -95.98999786376953
  },
  {
    "name": "Print NL",
    "phone": "+1 709-728-7734",
    "image": "https://r.bing.com/rp/x5cFUfAm445Z8lJcsV2pLCL1fn8.png",
    "latitude": 62.65999984741211,
    "longitude": -95.98999786376953
  },
  {
    "name": "Direct Print",
    "phone": "+1 866-990-6216",
    "image": "https://th.bing.com/th/id/OLC.fmInTzSUxOT7jQ480x360?w=114&h=114&c=8&rs=1&qlt=90&cdv=1&pid=Local",
    "latitude": 62.65999984741211,
    "longitude": -95.98999786376953
  },
  {
    "name": "Aladdin Print Canada",
    "phone": "+1 877-700-1009",
    "image": "https://th.bing.com/th/id/OLC.1RJqZsg1hVztaQ480x360?w=114&h=114&c=8&rs=1&qlt=90&cdv=1&pid=Local",
    "latitude": 62.65999984741211,
    "longitude": -95.98999786376953
  },
  {
    "name": "McCann Print Solutions",
    "phone": "+1 780-250-2623",
    "image": "https://r.bing.com/rp/x5cFUfAm445Z8lJcsV2pLCL1fn8.png",
    "latitude": 62.65999984741211,
    "longitude": -95.98999786376953
  },
  {
    "name": "Made In Print",
    "phone": "+1 604-259-0134",
    "image": "https://r.bing.com/rp/x5cFUfAm445Z8lJcsV2pLCL1fn8.png",
    "latitude": 62.65999984741211,
    "longitude": -95.98999786376953
  },
  {
    "name": "TriPrint.ink",
    "phone": "+1 647-374-0313",
    "image": "https://r.bing.com/rp/x5cFUfAm445Z8lJcsV2pLCL1fn8.png",
    "latitude": 62.65999984741211,
    "longitude": -95.98999786376953
  },
  {
    "name": "TMB Pad Printing Inc",
    "phone": "+1 778-552-0707",
    "image": "https://r.bing.com/rp/x5cFUfAm445Z8lJcsV2pLCL1fn8.png",
    "latitude": 62.65999984741211,
    "longitude": -95.98999786376953
  },
  {
    "name": "GFX Printing",
    "phone": "+1 800-469-5704",
    "image": "https://r.bing.com/rp/x5cFUfAm445Z8lJcsV2pLCL1fn8.png",
    "latitude": 62.65999984741211,
    "longitude": -95.98999786376953
  },
  {
    "name": "Winnipeg Prototyping Inc.",
    "phone": "+1 204-202-3256",
    "image": "https://th.bing.com/th/id/OLC.7BFwt1eOKIvgiA480x360?w=114&h=114&c=8&rs=1&qlt=90&cdv=1&pid=Local",
    "latitude": 62.65999984741211,
    "longitude": -95.98999786376953
  },
  {
    "name": "Business Cents Printing Brokers",
    "phone": "+1 613-266-5433",
    "image": "https://th.bing.com/th/id/OLC.CUmWXjv5iMz5ow480x360?w=114&h=114&c=8&rs=1&qlt=90&cdv=1&pid=Local",
    "latitude": 62.65999984741211,
    "longitude": -95.98999786376953
  },
  {
    "name": "Walls Print Canada",
    "phone": "+1 844-347-7468",
    "image": "https://th.bing.com/th?id=OLC.6w0%2fBPjtBEqZaw480x360&w=114&h=114&c=8&rs=1&qlt=90&cdv=1&pid=Local",
    "latitude": 62.65999984741211,
    "longitude": -95.98999786376953
  },
  {
    "name": "Advocate",
    "phone": "+1 902-457-7468",
    "image": "https://th.bing.com/th/id/OLC.K4293CEObEC5Xw480x360?w=114&h=114&c=8&rs=1&qlt=90&cdv=1&pid=Local",
    "latitude": 62.65999984741211,
    "longitude": -95.98999786376953
  },
  {
    "name": "Little Rock Printing",
    "phone": "+1 403-269-7022",
    "image": "https://th.bing.com/th?id=OLC.knQvRGrj1X%2bmsw480x360&w=114&h=114&c=8&rs=1&qlt=90&cdv=1&pid=Local",
    "latitude": 51.034080505371094,
    "longitude": -114.03524017333984
  },
  {
    "name": "Print2Go Vaughan",
    "phone": "+1 289-288-5828",
    "image": "https://th.bing.com/th?id=OLC.yKfKOEIo2%2f01OA480x360&w=114&h=114&c=8&rs=1&qlt=90&cdv=1&pid=Local",
    "latitude": 43.77517318725586,
    "longitude": -79.52474212646484
  },
  {
    "name": "Vistaprint Canada Ltd",
    "phone": "+1 866-614-8002",
    "image": "https://r.bing.com/rp/x5cFUfAm445Z8lJcsV2pLCL1fn8.png",
    "latitude": 42.30015563964844,
    "longitude": -82.82708740234375
  },
  {
    "name": "UPS Print Centre",
    "phone": "+1 905-826-0123",
    "image": "https://r.bing.com/rp/x5cFUfAm445Z8lJcsV2pLCL1fn8.png",
    "latitude": 43.58110427856445,
    "longitude": -79.75757598876953
  },
  {
    "name": "KKP - Calgary",
    "phone": "+1 403-234-8992",
    "image": "https://th.bing.com/th/id/OLC.aTfpQERqwYwXtg480x360?w=114&h=114&c=8&rs=1&qlt=90&cdv=1&pid=Local",
    "latitude": 51.0491943359375,
    "longitude": -114.06810760498047
  }
]